{"type": "FeatureCollection", "features": [{"type": "Feature", "geometry": {"type": "Point", "coordinates": [-73.8335025, 40.7602944]}, "properties": {"name": "Shoo Loong Kan"}}, {"type": "Feature", "geometry": {"type": "Point", "coordinates": [-73.9858723, 40.7527215]}, "properties": {"name": "ER HOT POT - 6TH AVE"}}, {"type": "Feature", "geometry": {"type": "Point", "coordinates": [-74.0049059, 40.6338342]}, "properties": {"name": "Xiang Hotpot-Brooklyn"}}, {"type": "Feature", "geometry": {"type": "Point", "coordinates": [-73.9902528, 40.7310533]}, "properties": {"name": "Hou Hot Pot"}}, {"type": "Feature", "geometry": {"type": "Point", "coordinates": [-73.9853481, 40.7506286]}, "properties": {"name": "Mala Hot Pot"}}, {"type": "Feature", "geometry": {"type": "Point", "coordinates": [-73.9838064, 40.7512171]}, "properties": {"name": "THREE-HOT-POT & BBQ"}}, {"type": "Feature", "geometry": {"type": "Point", "coordinates": [-73.9844033, 40.7502597]}, "properties": {"name": "ER HOT POT "}}, {"type": "Feature", "geometry": {"type": "Point", "coordinates": [-73.9451903, 40.7457327]}, "properties": {"name": "Joypot"}}, {"type": "Feature", "geometry": {"type": "Point", "coordinates": [-74.0179792, 40.7079819]}, "properties": {"name": "ER HOT POT - Battery Park"}}, {"type": "Feature", "geometry": {"type": "Point", "coordinates": [-74.0085156, 40.6313591]}, "properties": {"name": "Chong Qing Wharf Hot Pot"}}, {"type": "Feature", "geometry": {"type": "Point", "coordinates": [-73.9913113, 40.6001916]}, "properties": {"name": "LaoJie Hotpot"}}, {"type": "Feature", "geometry": {"type": "Point", "coordinates": [-73.9965889, 40.7166314]}, "properties": {"name": "Da Long Yi Hot Pot"}}, {"type": "Feature", "geometry": {"type": "Point", "coordinates": [-73.9949923, 40.7176193]}, "properties": {"name": "LaoJie Hotpot Manhattan"}}, {"type": "Feature", "geometry": {"type": "Point", "coordinates": [-73.9803083, 40.5758013]}, "properties": {"name": "KPOT Korean BBQ & Hot Pot"}}, {"type": "Feature", "geometry": {"type": "Point", "coordinates": [-73.9605884, 40.661424]}, "properties": {"name": "De Hot Pot"}}, {"type": "Feature", "geometry": {"type": "Point", "coordinates": [-73.983788, 40.690867]}, "properties": {"name": "KPOT Korean BBQ & Hot Pot"}}, {"type": "Feature", "geometry": {"type": "Point", "coordinates": [-74.0112831, 40.6325948]}, "properties": {"name": "XI YUE HUI HOT POT"}}, {"type": "Feature", "geometry": {"type": "Point", "coordinates": [-73.8329444, 40.7612333]}, "properties": {"name": "CHOCHO Hot Pot Premium All You Can Eat"}}, {"type": "Feature", "geometry": {"type": "Point", "coordinates": [-73.996849, 40.719403]}, "properties": {"name": "Hometown Hotpot & BBQ"}}, {"type": "Feature", "geometry": {"type": "Point", "coordinates": [-73.9413782, 40.7502032]}, "properties": {"name": "Da Long Yi Hot Pot"}}, {"type": "Feature", "geometry": {"type": "Point", "coordinates": [-73.7416329, 40.6767449]}, "properties": {"name": "Hot Pot International Restaurant"}}, {"type": "Feature", "geometry": {"type": "Point", "coordinates": [-73.9885079, 40.7310965]}, "properties": {"name": "The Dolar Shop Hot Pot Manhattan"}}, {"type": "Feature", "geometry": {"type": "Point", "coordinates": [-73.8280583, 40.7613242]}, "properties": {"name": "Haidilao Huoguo Flushing"}}, {"type": "Feature", "geometry": {"type": "Point", "coordinates": [-74.0048917, 40.6393767]}, "properties": {"name": "LaoJie"}}, {"type": "Feature", "geometry": {"type": "Point", "coordinates": [-73.9925766, 40.7161827]}, "properties": {"name": "Hou Yi Hot Pot"}}, {"type": "Feature", "geometry": {"type": "Point", "coordinates": [-73.814865, 40.755423]}, "properties": {"name": "Chuan You Dao Skewer Hot Pot"}}, {"type": "Feature", "geometry": {"type": "Point", "coordinates": [-73.9944938, 40.6150685]}, "properties": {"name": "Hot Spot Nabe"}}, {"type": "Feature", "geometry": {"type": "Point", "coordinates": [-73.8323567, 40.7612115]}, "properties": {"name": "37 Xiang Seafood Hot Pot Restaurant"}}, {"type": "Feature", "geometry": {"type": "Point", "coordinates": [-73.8287736, 40.7589127]}, "properties": {"name": "Hot Pot House"}}, {"type": "Feature", "geometry": {"type": "Point", "coordinates": [-73.8276729, 40.7607682]}, "properties": {"name": "Liuyishou Hot Pot"}}, {"type": "Feature", "geometry": {"type": "Point", "coordinates": [-74.1475067, 40.6245841]}, "properties": {"name": "KPOT Korean BBQ, Hot Pot & Sushi"}}, {"type": "Feature", "geometry": {"type": "Point", "coordinates": [-73.9829065, 40.7673254]}, "properties": {"name": "Mr.Liu Hot Pot"}}, {"type": "Feature", "geometry": {"type": "Point", "coordinates": [-74.014552, 40.6345804]}, "properties": {"name": "Flaming Mountain Hot Pot"}}, {"type": "Feature", "geometry": {"type": "Point", "coordinates": [-73.7379598, 40.7683334]}, "properties": {"name": "Tihu Hot Pot & BBQ"}}, {"type": "Feature", "geometry": {"type": "Point", "coordinates": [-73.9860055, 40.7403737]}, "properties": {"name": "XW SPICY HOT POT"}}, {"type": "Feature", "geometry": {"type": "Point", "coordinates": [-73.8408955, 40.781505]}, "properties": {"name": "Pinshang Hot Pot"}}, {"type": "Feature", "geometry": {"type": "Point", "coordinates": [-73.8330235, 40.7606738]}, "properties": {"name": "Chongqing Lao Zao"}}, {"type": "Feature", "geometry": {"type": "Point", "coordinates": [-73.8046316, 40.7624312]}, "properties": {"name": "Lao Shen Hotpot"}}, {"type": "Feature", "geometry": {"type": "Point", "coordinates": [-74.0054971, 40.6387108]}, "properties": {"name": "Hot Stix Hot Pot & BBQ"}}, {"type": "Feature", "geometry": {"type": "Point", "coordinates": [-73.828995, 40.762194]}, "properties": {"name": "Happy Lamb Hot Pot"}}, {"type": "Feature", "geometry": {"type": "Point", "coordinates": [-73.9673831, 40.8027271]}, "properties": {"name": "108 Food Dried Hot Pot"}}, {"type": "Feature", "geometry": {"type": "Point", "coordinates": [-73.997952, 40.7160888]}, "properties": {"name": "Zhang Liang Spicy Hot Pot"}}, {"type": "Feature", "geometry": {"type": "Point", "coordinates": [-73.9986402, 40.7150106]}, "properties": {"name": "Sichuan Hot Pot Cuisine"}}, {"type": "Feature", "geometry": {"type": "Point", "coordinates": [-73.98851176, 40.73108758]}, "properties": {"name": "The Dolar Shop Hot Pot Manhattan"}}]}